[
  {
    "lat": 55.558720102860385, 
    "lng": 95.32127139330959,
    "title": "Mie Aceh Razali",
    "description": "Warung Makan - Legendaris Mie Aceh"
  },
  {
    "lat": 5.552647505913117, 
    "lng": 95.35609154023996,
    "title": "Warung Kopi Solong",
    "description": "Warung Makan - Kopi Ulee Kareng"
  },
  {
    "lat": 5.557205425070029, 
    "lng": 95.34453490683056,
    "title": "Ayam Tangkap Cut Dek",
    "description": "Warung Makan - Khas Ayam Tangkap"
  },
  {
    "lat": 5.529878777299449, 
    "lng": 95.32080530052968,
    "title": "Mie Aceh Ayah",
    "description": "Mie Aceh dengan bumbu rempah yang kuat."
  },
  {
    "lat": 5.611299345696159, 
    "lng": 95.3281622334154,
    "title": "Nasi Kambing Lem Bakrie",
    "description": "Terkenal dengan olahan daging kambing yang empuk."
  },
  {
    "lat": 5.560101857884987, 
    "lng": 95.34704501154974,
    "title": "Rumah Makan Hasan",
    "description": "Sajian masakan Aceh rumahan yang otentik."
  },
  {
    "lat": 5.546578014890827,
    "lng": 95.30686085101692,
    "title": "PLTD Apung",
    "description": "Wisata Sejarah - Kapal Terdampar"
  },
  {
    "lat": 5.54732551662263, 
    "lng": 95.31596426881138,
    "title": "Taman Sari",
    "description": "Taman Kota - Tempat Santai"
  },
  {
    "lat": 5.511517039413047,
    "lng": 95.36574850684742,
    "title": "Kuburan Massal Siron",
    "description": "Situs Sejarah - Peringatan Tsunami"
  },
  {
    "lat": 5.556362568548234, 
    "lng": 995.3153292933411,
    "title": "Pasar Aceh",
    "description": "Pusat Perbelanjaan - Oleh-oleh Khas"
  },
  {
    "lat": 5.560222047837817, 
    "lng": 95.28534359814415,
    "title": "Pantai Ulee Lheue",
    "description": "Wisata Alam - Pemandangan Laut"
  },
  {
    "lat": 5.577157407343703,
    "lng": 95.39792698873168,
    "title": "Masjid Jamik Baitul Ahad Mukim Siem",
    "description": "Masjid Jamik Baitul Ahad Mukim Siem adalah sebuah masjid yang terletak di Mukim Siem, Kabupaten Aceh Besar, Provinsi Aceh, Indonesia."
  },
  {
    "lat": 5.548074253028026,
    "lng": 95.31527257225693,
    "title": "Museum Tsunami Aceh",
    "description": "Museum Tsunami Aceh adalah museum peringatan bencana tsunami di Banda Aceh, Aceh, Indonesia."
  },
    {
    "lat": 5.5457545659208165,
    "lng": 95.34568420403745,
    "title": "Masjid Haji Keuchik Leumiek",
    "description": "Masjid Haji Keuchik Leumiek adalah sebuah masjid yang terletak di Leumiek, Kabupaten Aceh Besar, Provinsi Aceh, Indonesia."
  },
  {
    "lat": 5.557385645716468,
    "lng": 95.31799585790922,
    "title": "Masjid Raya Baiturrahman",
    "description": "Masjid Raya Baiturrahman adalah sebuah masjid yang terletak di Banda Aceh, Kabupaten Aceh Besar, Provinsi Aceh, Indonesia."
  },
  {
    "lat": 5.559136901999561,
    "lng": 95.28410500776835,
    "title": "Masjid Baiturrahim - Ulee Lheue",
    "description": "Masjid Baiturrahim adalah sebuah masjid yang terletak di Ulee Lheue, Kabupaten Aceh Besar, Provinsi Aceh, Indonesia."
  },
  {
    "lat": 5.478894336285956,
    "lng": 95.33849159486083,
    "title": "Masjid Baitul Kiram",
    "description": "Masjid Baitul Kiram adalah sebuah masjid yang terletak di Gampong Biluy, Kabupaten Aceh Besar, Provinsi Aceh, Indonesia."
  },
  {
    "lat": 5.535766813861985,
    "lng": 95.32145871305006,
    "title": "Masjid Baiturrahim Ateuk Jawo",
    "description": "Masjid Baiturrahim Ateuk Jawo adalah sebuah masjid yang terletak di Ateuk Jawo, Kecamatan Baiturrahman, Kota Banda Aceh, Provinsi Aceh, Indonesia."
  }
]

